Business Name,Physical Address Number,Physical Address,Physical City,Physical State,Phone,Latitude,Longitude,Primary SIC Description,
"Fairouz","5268","5268 Washington St","West Roxbury","MA","(617) 469-0000","42.2593522","-71.1588677","Restaurants",
"Byblos Restaurant Inc","678","678 Washington St","Norwood","MA","(781) 762-8998","42.1928302","-71.2010681","Restaurants",
"Webster's Eatery","13","13 Scammell St","Quincy","MA","(617) 479-5459","42.242932","-70.99502","Restaurants",
"Marthas Restaurant","153","153 Lafayette Rd Unit 1","Hampton Falls","NH","(603) 929-5092","42.92289","-70.854232","Restaurants",
"Shawarma King Restaurant II","1383","1383 Beacon St","Brookline","MA","(617) 731-6035","42.341146","-71.12411","Restaurants",
